[
    {
        "name": "唇辣号重庆老火锅（回龙观店）",
        "score": 5,
        "avgprice": 79,
        "addr": "昌平区回龙观东大街科星西路19号院（和谐家园一区西门对面）",
        "phone": "010-60779228",
        "longitude": 116.357368,
        "latitude": 40.085521,
        "ctime": 1488471939707
    },
    {
        "name": "牧羊人羊蹄筋火锅",
        "score": 5,
        "avgprice": 47,
        "addr": "昌平区和谐家园二区西门底商（盛百味旁边）",
        "phone": "010-80758780",
        "longitude": 116.358302,
        "latitude": 40.081914,
        "ctime": 1488471939708
    },
    {
        "name": "原创泥炉烤肉",
        "score": 5,
        "avgprice": 79,
        "addr": "昌平区回龙观风雅园2区",
        "phone": "010-69798172",
        "longitude": 116.321162,
        "latitude": 40.08256,
        "ctime": 1488471939709
    },
    {
        "name": "姚记羊蝎子（回龙观店）",
        "score": 5,
        "avgprice": 64,
        "addr": "昌平区育知西路风雅园三区3号楼底商",
        "phone": "010-81710600",
        "longitude": 116.322511,
        "latitude": 40.079531,
        "ctime": 1488471939710
    },
    {
        "name": "净悟真私宅烤全羊（龙城总店）",
        "score": 5,
        "avgprice": 145,
        "addr": "昌平区回龙观龙城花园综合楼3层（近龙城丽宫酒店）",
        "phone": "010-80790269/18801185585",
        "longitude": 116.300627,
        "latitude": 40.083091,
        "ctime": 1488471939711
    },
    {
        "name": "重庆鸡公煲",
        "score": 5,
        "avgprice": 28,
        "addr": "昌平区回龙镇史各庄市场东路阳光超市北侧80米",
        "phone": "18911431422",
        "longitude": 116.28685,
        "latitude": 40.10191,
        "ctime": 1488471939712
    },
    {
        "name": "雪琴酸奶店",
        "score": 5,
        "avgprice": 7,
        "addr": "昌平区回龙观镇西大街美廉美旁加油站院里",
        "phone": "13552701468",
        "longitude": 116.322604,
        "latitude": 40.076382,
        "ctime": 1488471939713
    },
    {
        "name": "大卫船长健康餐（回龙观店）",
        "score": 5,
        "avgprice": 54,
        "addr": "昌平区回龙观镇东亚·上北中心西北角底商17-15",
        "phone": "010-59505560",
        "longitude": 116.339112,
        "latitude": 40.082808,
        "ctime": 1488471939714
    },
    {
        "name": "百合香蛋糕店（龙翔路店）",
        "score": 5,
        "avgprice": 75,
        "addr": "海淀区龙翔路甲1号海鲜大排挡百合香蛋糕店",
        "phone": "15116990901",
        "longitude": 116.376946,
        "latitude": 39.98233,
        "ctime": 1488471939715
    },
    {
        "name": "老诚一锅（霍营店）",
        "score": 5,
        "avgprice": 0,
        "addr": "昌平区回龙观东大街和谐家园一区西门（汉庭连锁酒店向北200米路东）",
        "phone": "010-57152666",
        "longitude": 116.35787,
        "latitude": 40.085813,
        "ctime": 1488471939716
    },
    {
        "name": "陈纪徳慧源稍麦",
        "score": 5,
        "avgprice": 40,
        "addr": "昌平区回龙观西大街上北鑫座2号楼110底商",
        "phone": "010-57170440",
        "longitude": 116.33093,
        "latitude": 40.078906,
        "ctime": 1488471939717
    },
    {
        "name": "泥锅蝎子王（回龙观店）",
        "score": 5,
        "avgprice": 43,
        "addr": "昌平区回龙观科星西路总政小区底商",
        "phone": "010-57219286",
        "longitude": 116.357348,
        "latitude": 40.085956,
        "ctime": 1488471939718
    },
    {
        "name": "天德全京味居",
        "score": 5,
        "avgprice": 0,
        "addr": "昌平区农干院南50米",
        "phone": "010-51242090",
        "longitude": 116.36814,
        "latitude": 40.07816,
        "ctime": 1488471939719
    },
    {
        "name": "渝是乎（龙旗店）",
        "score": 5,
        "avgprice": 40,
        "addr": "昌平区西三旗泰华龙旗广场购物中心3层",
        "phone": "010-56283548",
        "longitude": 116.347235,
        "latitude": 40.065811,
        "ctime": 1488471939720
    },
    {
        "name": "重庆小面（上坡佳园店）",
        "score": 5,
        "avgprice": 27,
        "addr": "昌平区上坡佳园底商",
        "phone": "13436608666",
        "longitude": 116.367002,
        "latitude": 40.08276,
        "ctime": 1488471939721
    },
    {
        "name": "阿春小馆",
        "score": 5,
        "avgprice": 44,
        "addr": "昌平区新龙城西门建设银行对面",
        "phone": "15701285917",
        "longitude": 116.320812,
        "latitude": 40.067774,
        "ctime": 1488471939722
    },
    {
        "name": "必客乐",
        "score": 5,
        "avgprice": 0,
        "addr": "昌平区北清路1号永旺国际商城购物中心138区域",
        "phone": "010-80700737",
        "longitude": 116.290022,
        "latitude": 40.095958,
        "ctime": 1488471939723
    },
    {
        "name": "小物创意火锅",
        "score": 5,
        "avgprice": 47,
        "addr": "昌平区回龙观西大街上北鑫座底商",
        "phone": "010-81050875",
        "longitude": 116.332627,
        "latitude": 40.079183,
        "ctime": 1488471939724
    },
    {
        "name": "青年菜君",
        "score": 5,
        "avgprice": 0,
        "addr": "昌平区东小口霍营村紫金新干线11号楼1层01乐和润家超市",
        "phone": "400-882-1551",
        "longitude": 116.37732,
        "latitude": 40.08053,
        "ctime": 1488471939725
    },
    {
        "name": "爱cake烘焙艺术坊",
        "score": 4.9,
        "avgprice": 0,
        "addr": "昌平区科星西路和谐家园一区西门正对面",
        "phone": "18101364797",
        "longitude": 116.3579,
        "latitude": 40.08543,
        "ctime": 1488471939726
    },
    {
        "name": "涩 Bar",
        "score": 4.9,
        "avgprice": 72,
        "addr": "昌平区回龙观西大街上北鑫座2号楼203（上北鑫座西200米东亚新华楼下，壹尚·王者西服定制楼上）",
        "phone": "010-56440667/13811055576",
        "longitude": 116.330922,
        "latitude": 40.079078,
        "ctime": 1488471939727
    },
    {
        "name": "美心花房（回龙观美心鲜花店）",
        "score": 4.9,
        "avgprice": 0,
        "addr": "昌平区回龙观新龙城21号楼底商（万润家园北门正对面，导航可以找到）",
        "phone": "18710201711",
        "longitude": 116.325436,
        "latitude": 40.068174,
        "ctime": 1488471939728
    },
    {
        "name": "阿田大虾（北京人家店）",
        "score": 4.9,
        "avgprice": 57,
        "addr": "昌平区北京人家北门商业街42号",
        "phone": "15201322293",
        "longitude": 116.300961,
        "latitude": 40.080544,
        "ctime": 1488471939729
    },
    {
        "name": "第1佳大鸡排（三旗百汇店）",
        "score": 4.9,
        "avgprice": 15,
        "addr": "昌平区回龙观街道三旗百汇商城南门",
        "phone": "15201019125",
        "longitude": 116.342576,
        "latitude": 40.059792,
        "ctime": 1488471939730
    },
    {
        "name": "重庆十八梯老火锅（回龙观店）",
        "score": 4.9,
        "avgprice": 85,
        "addr": "昌平区回龙观西大街18号港龙商业街104号2-3层（回龙尾货向东10米）",
        "phone": "010-56038921",
        "longitude": 116.329764,
        "latitude": 40.07783,
        "ctime": 1488471939731
    },
    {
        "name": "木子豆丁鸡",
        "score": 4.9,
        "avgprice": 0,
        "addr": "昌平区回龙观地区回龙观西大街上北鑫座一层",
        "phone": "18600081921",
        "longitude": 116.333238,
        "latitude": 40.079568,
        "ctime": 1488471939732
    },
    {
        "name": "匹夫涮肉城（西三旗店）",
        "score": 4.9,
        "avgprice": 80,
        "addr": "昌平区黄平路物美超市3楼",
        "phone": "010-82925188",
        "longitude": 116.34621,
        "latitude": 40.06323,
        "ctime": 1488471939733
    },
    {
        "name": "饭点",
        "score": 4.9,
        "avgprice": 16,
        "addr": "昌平区回龙观镇西大街35号院2号楼",
        "phone": "18500263253",
        "longitude": 116.32993,
        "latitude": 40.07852,
        "ctime": 1488471939734
    },
    {
        "name": "沸炉火锅（港龙店）",
        "score": 4.8,
        "avgprice": 85,
        "addr": "昌平区回龙观港龙商业街18号（万意百货、回龙观百货）",
        "phone": "010-81734102",
        "longitude": 116.33223,
        "latitude": 40.07877,
        "ctime": 1488471939735
    },
    {
        "name": "尚品韩餐（尚品韩国料理）",
        "score": 4.8,
        "avgprice": 25,
        "addr": "昌平区北清路宏福科技园1-109（宏福大厦西侧50米，TBD云集中心对面，修正大厦对面）",
        "phone": "010-57957048",
        "longitude": 116.368674,
        "latitude": 40.101018,
        "ctime": 1488471939736
    },
    {
        "name": "蒙奇D美食料理主题餐厅",
        "score": 4.8,
        "avgprice": 60,
        "addr": "昌平区风雅园北街（积水潭医院西门）",
        "phone": "15811570518",
        "longitude": 116.321469,
        "latitude": 40.086439,
        "ctime": 1488471939737
    },
    {
        "name": "果麦de鲜饮（霍营地铁站店）",
        "score": 4.8,
        "avgprice": 12,
        "addr": "昌平区霍营地铁站科星西路43号1层（近地铁霍营站）",
        "phone": "010-57732250",
        "longitude": 116.358751,
        "latitude": 40.073879,
        "ctime": 1488471939738
    },
    {
        "name": "啃壹锅（育知东路店）",
        "score": 4.8,
        "avgprice": 64,
        "addr": "昌平区龙腾苑六区东门",
        "phone": "010-81726928",
        "longitude": 116.334092,
        "latitude": 40.075077,
        "ctime": 1488471939739
    },
    {
        "name": "金营食汇火锅城（回龙观东大街店）",
        "score": 4.8,
        "avgprice": 52,
        "addr": "昌平区回龙观和谐家园一区西门2楼2号（回龙观矩阵北侧）",
        "phone": "010-81744546",
        "longitude": 116.357904,
        "latitude": 40.085808,
        "ctime": 1488471939740
    },
    {
        "name": "三江汇（回龙观店）",
        "score": 4.8,
        "avgprice": 46,
        "addr": "昌平区回龙观西大街上北鑫座4号楼（万意百货西北角）",
        "phone": "18310807736/13691542231",
        "longitude": 116.332478,
        "latitude": 40.079507,
        "ctime": 1488471939741
    },
    {
        "name": "老板@鱼",
        "score": 4.8,
        "avgprice": 52,
        "addr": "昌平区科星西路33号楼",
        "phone": "010-56038258",
        "longitude": 116.358473,
        "latitude": 40.076868,
        "ctime": 1488471939742
    },
    {
        "name": "无敌轰炸大鱿鱼（霍营新世纪店）",
        "score": 4.8,
        "avgprice": 0,
        "addr": "昌平区霍营地铁站向东500米路南，医院对面",
        "phone": "13121360629",
        "longitude": 116.367019,
        "latitude": 40.075094,
        "ctime": 1488471939743
    },
    {
        "name": "第1佳大鸡排（回龙观东大街店）",
        "score": 4.8,
        "avgprice": 13,
        "addr": "昌平区回龙观东大街8号线地铁A口旁",
        "phone": "13910134505",
        "longitude": 116.362685,
        "latitude": 40.081494,
        "ctime": 1488471939744
    },
    {
        "name": "谷麦香麻辣烫（风雅园店）",
        "score": 4.8,
        "avgprice": 24,
        "addr": "昌平区风雅园二区A06号底商(快乐谷KTV)",
        "phone": "010-59864238",
        "longitude": 116.32139,
        "latitude": 40.08183,
        "ctime": 1488471939745
    },
    {
        "name": "第1佳大鸡排（史各庄店）",
        "score": 4.7,
        "avgprice": 15,
        "addr": "昌平区史各庄东半壁店村委会往西20米",
        "phone": "17888814911",
        "longitude": 116.288384,
        "latitude": 40.098524,
        "ctime": 1488471939746
    },
    {
        "name": "好伦哥航母餐厅（回龙观店）",
        "score": 4.7,
        "avgprice": 73,
        "addr": "昌平区回龙观西大街北店时代广场4层",
        "phone": "010-81727066",
        "longitude": 116.33625,
        "latitude": 40.080014,
        "ctime": 1488471939747
    },
    {
        "name": "幸福牧场鲜奶吧",
        "score": 4.7,
        "avgprice": 10,
        "addr": "昌平区科星西路47号（乐天超市东侧）",
        "phone": "18610287808",
        "longitude": 116.358438,
        "latitude": 40.073126,
        "ctime": 1488471939748
    },
    {
        "name": "榴莲蛋糕榴莲主题（回龙观店）",
        "score": 4.7,
        "avgprice": 35,
        "addr": "昌平区回龙观镇龙锦苑东五区13号楼底商",
        "phone": "13051974777/18210162855",
        "longitude": 116.349267,
        "latitude": 40.082039,
        "ctime": 1488471939749
    },
    {
        "name": "韩国紫菜包饭",
        "score": 4.7,
        "avgprice": 15,
        "addr": "昌平区龙泽园街道风雅园2区",
        "phone": "15101041897",
        "longitude": 116.321487,
        "latitude": 40.081376,
        "ctime": 1488471939750
    },
    {
        "name": "三江芦苇荡贵州酸汤鱼（鑫地市场店）",
        "score": 4.7,
        "avgprice": 89,
        "addr": "昌平区回龙观文华西路鑫地市场西门外（龙腾苑二区东门对面）",
        "phone": "010-81746799",
        "longitude": 116.33976,
        "latitude": 40.076708,
        "ctime": 1488471939751
    },
    {
        "name": "泡泡新奇火锅汇（生命科学园店）",
        "score": 4.7,
        "avgprice": 32,
        "addr": "昌平区北清路中关村生命科学园内博雅CC商业广场美食城B1楼",
        "phone": "13716759216",
        "longitude": 116.267328,
        "latitude": 40.1012,
        "ctime": 1488471939752
    },
    {
        "name": "猫山王榴莲甜品MusangKing（猫叔回龙观店）",
        "score": 4.7,
        "avgprice": 37,
        "addr": "昌平区华联同成街购物中心3层F3-26b（回龙观站地铁对面）",
        "phone": "010-56455177",
        "longitude": 116.337166,
        "latitude": 40.071849,
        "ctime": 1488471939753
    },
    {
        "name": "张记烤猪蹄",
        "score": 4.7,
        "avgprice": 14,
        "addr": "昌平区西大街回龙尾货西北门",
        "phone": "13693196067",
        "longitude": 116.329466,
        "latitude": 40.077744,
        "ctime": 1488471939754
    },
    {
        "name": "好食源酸菜鱼",
        "score": 4.7,
        "avgprice": 50,
        "addr": "昌平区龙域中街5号回龙观新村西区北门",
        "phone": "010-62911623",
        "longitude": 116.307336,
        "latitude": 40.063165,
        "ctime": 1488471939755
    },
    {
        "name": "甘露素食主义餐厅（回龙观店）",
        "score": 4.7,
        "avgprice": 26,
        "addr": "昌平区科星西路19号科星西路19号和谐家园一区西门对面总政大院底商二层甘露素食主义餐厅",
        "phone": "010-80745911",
        "longitude": 116.357526,
        "latitude": 40.08572,
        "ctime": 1488471939756
    },
    {
        "name": "FAMILY烘焙坊（西三旗店）",
        "score": 4.7,
        "avgprice": 50,
        "addr": "昌平区建材城西路10号（9号院底商）",
        "phone": "010-56075585/18811036049",
        "longitude": 116.353656,
        "latitude": 40.065133,
        "ctime": 1488471939757
    },
    {
        "name": "铁木真烧烤涮（风雅园店）",
        "score": 4.7,
        "avgprice": 57,
        "addr": "昌平区育知西路风雅园二区底商",
        "phone": "010-81718980",
        "longitude": 116.321442,
        "latitude": 40.082065,
        "ctime": 1488471939758
    },
    {
        "name": "御水茶楼",
        "score": 4.7,
        "avgprice": 0,
        "addr": "昌平区龙禧三街万荣美食广场御水足道二楼（慧华苑北门店商）（近御水足道养生会所）",
        "phone": "010-53696310",
        "longitude": 116.3148,
        "latitude": 40.07788,
        "ctime": 1488471939759
    },
    {
        "name": "聚秦川",
        "score": 4.7,
        "avgprice": 45,
        "addr": "昌平区宏福大道温都水城商业街玉泉超市旁",
        "phone": "010-81759244",
        "longitude": 116.373705,
        "latitude": 40.10319,
        "ctime": 1488471939760
    },
    {
        "name": "IT联盟烧烤基地（龙禧小吃城店）",
        "score": 4.7,
        "avgprice": 49,
        "addr": "昌平区东亚上北小区西门对面（休闲部落楼下）",
        "phone": "13810476503",
        "longitude": 116.33797,
        "latitude": 40.081658,
        "ctime": 1488471939761
    },
    {
        "name": "西贝莜面村（回龙观华联店）",
        "score": 4.7,
        "avgprice": 73,
        "addr": "昌平区回龙观西大街111号华联商厦3楼",
        "phone": "010-81736689",
        "longitude": 116.31958,
        "latitude": 40.07577,
        "ctime": 1488471939762
    },
    {
        "name": "第1佳大鸡排",
        "score": 4.7,
        "avgprice": 17,
        "addr": "昌平区北三环外环辅路和平董桥向西50米（胜古东里南门）（化工大学南门）",
        "phone": "13811731953",
        "longitude": 116.28414,
        "latitude": 40.098614,
        "ctime": 1488471939763
    },
    {
        "name": "直冒汗干锅香锅麻辣主题餐厅",
        "score": 4.7,
        "avgprice": 41,
        "addr": "昌平区回龙观西大街港龙商业中心18-1-111(回龙尾货附近)",
        "phone": "010-57404832",
        "longitude": 116.3322,
        "latitude": 40.07872,
        "ctime": 1488471939764
    },
    {
        "name": "渡娘火锅（龙跃店）",
        "score": 4.7,
        "avgprice": 85,
        "addr": "昌平区文华东路（龙锦三街）回龙观龙跃苑一区4号楼",
        "phone": "010-58477222",
        "longitude": 116.35026,
        "latitude": 40.07934,
        "ctime": 1488471939765
    },
    {
        "name": "阳坊大都涮羊肉（霍营店）",
        "score": 4.7,
        "avgprice": 66,
        "addr": "昌平区科星西路33号楼霍营中心小学北200米，霍营地铁站E出口向北500米",
        "phone": "010-56263918",
        "longitude": 116.35839,
        "latitude": 40.07682,
        "ctime": 1488471939766
    },
    {
        "name": "3A07逆爱杯子蛋糕（回龙观店）",
        "score": 4.7,
        "avgprice": 30,
        "addr": "昌平区回龙观西大街上北鑫座2号楼209",
        "phone": "18614016682",
        "longitude": 116.330122,
        "latitude": 40.078971,
        "ctime": 1488471939767
    },
    {
        "name": "金麦客大同刀削面",
        "score": 4.7,
        "avgprice": 17,
        "addr": "昌平区回龙观龙禧苑15号楼底商",
        "phone": "010-60789011",
        "longitude": 116.33355,
        "latitude": 40.08101,
        "ctime": 1488471939768
    },
    {
        "name": "羊辣椒羊蝎子火锅（霍营店）",
        "score": 4.7,
        "avgprice": 51,
        "addr": "昌平区霍营乡华龙苑中里北侧（近应用技术大学）",
        "phone": "010-56227180",
        "longitude": 116.367688,
        "latitude": 40.079168,
        "ctime": 1488471939769
    },
    {
        "name": "美佳美千层烘焙",
        "score": 4.6,
        "avgprice": 100,
        "addr": "西城区双槐里小区6号楼底商",
        "phone": "15117938472",
        "longitude": 116.370149,
        "latitude": 39.882457,
        "ctime": 1488471939770
    },
    {
        "name": "民天金钩钓",
        "score": 4.6,
        "avgprice": 51,
        "addr": "昌平区风雅园三区速8酒店底商",
        "phone": "010-81712778",
        "longitude": 116.322574,
        "latitude": 40.079393,
        "ctime": 1488471939771
    },
    {
        "name": "善生坊巫山烤全鱼（龙旗广场店）",
        "score": 4.6,
        "avgprice": 48,
        "addr": "昌平区文华路回龙观龙旗购物中心二楼",
        "phone": "010-80199866/52498979",
        "longitude": 116.346621,
        "latitude": 40.066693,
        "ctime": 1488471939772
    },
    {
        "name": "喜捞麻辣涮肚羊蝎子火锅",
        "score": 4.6,
        "avgprice": 20,
        "addr": "昌平区霍营中西医结合医院斜对面东北饺子家常菜旁（国枫美唐正对面）",
        "phone": "13661381333/13371728666",
        "longitude": 116.364119,
        "latitude": 40.074436,
        "ctime": 1488471939773
    },
    {
        "name": "老重庆万州面",
        "score": 4.6,
        "avgprice": 15,
        "addr": "昌平区回龙观文华西路（东亚上北小区西门对面）",
        "phone": "13693175571",
        "longitude": 116.337942,
        "latitude": 40.081794,
        "ctime": 1488471939774
    },
    {
        "name": "知味斋（回龙观店）",
        "score": 4.6,
        "avgprice": 53,
        "addr": "昌平区良庄街和谐家园一区西门对面",
        "phone": "010-57604073",
        "longitude": 116.357422,
        "latitude": 40.085085,
        "ctime": 1488471939775
    },
    {
        "name": "榴莲蛋糕（榴莲哥回龙观店）",
        "score": 4.6,
        "avgprice": 48,
        "addr": "昌平区回龙观西大街港龙商业中心18号",
        "phone": "13641154444/13167597591",
        "longitude": 116.332061,
        "latitude": 40.07864,
        "ctime": 1488471939776
    },
    {
        "name": "皇家鸡排（华北电力大学店）",
        "score": 4.6,
        "avgprice": 17,
        "addr": "昌平区北农路7号（北农酒店门口）",
        "phone": "15201381871",
        "longitude": 116.305467,
        "latitude": 40.091047,
        "ctime": 1488471939777
    },
    {
        "name": "一心向膳烤猪蹄（回龙观店）",
        "score": 4.6,
        "avgprice": 17,
        "addr": "昌平区回龙观西大街琥珀天地85号西南角报亭",
        "phone": "17710334224",
        "longitude": 116.323801,
        "latitude": 40.076534,
        "ctime": 1488471939778
    },
    {
        "name": "炙青春老北京炙子烤肉",
        "score": 4.6,
        "avgprice": 67,
        "addr": "昌平区霍营黄平东路农业部管理干部学院对面向北50米霍营乡公交站",
        "phone": "13683618863/13691568539",
        "longitude": 116.367752,
        "latitude": 40.0796,
        "ctime": 1488471939779
    },
    {
        "name": "月季串串",
        "score": 4.6,
        "avgprice": 48,
        "addr": "昌平区回龙观西大街18号回龙尾货西侧",
        "phone": "13717958635",
        "longitude": 116.329484,
        "latitude": 40.077654,
        "ctime": 1488471939780
    },
    {
        "name": "麦特派（史各庄店）",
        "score": 4.6,
        "avgprice": 20,
        "addr": "昌平区回龙观乡史各庄东半壁店9号",
        "phone": "010-56195253",
        "longitude": 116.28802,
        "latitude": 40.09905,
        "ctime": 1488471939781
    },
    {
        "name": "久久丫（回龙观店）",
        "score": 4.6,
        "avgprice": 23,
        "addr": "昌平区回龙观京客隆旁",
        "phone": "010-53618736",
        "longitude": 116.311711,
        "latitude": 40.079619,
        "ctime": 1488471939782
    },
    {
        "name": "名客佳大鸡排（平西府店）",
        "score": 4.6,
        "avgprice": 12,
        "addr": "昌平区回龙观文化东路田园风光雅苑马玉涛麻辣烫底商（平西府地铁D2口，，超市发旁）",
        "phone": "13161605386",
        "longitude": 116.349089,
        "latitude": 40.088367,
        "ctime": 1488471939783
    },
    {
        "name": "味上品羊棒骨",
        "score": 4.6,
        "avgprice": 0,
        "addr": "昌平区回龙观东亚上北北门底商",
        "phone": "15611948964",
        "longitude": 116.340208,
        "latitude": 40.082962,
        "ctime": 1488471939784
    },
    {
        "name": "COSTA COFFEE（回龙观华联1店）",
        "score": 4.6,
        "avgprice": 43,
        "addr": "昌平区回龙观同城街育知东路30号院5号楼F1-19",
        "phone": "010-56455031",
        "longitude": 116.33702,
        "latitude": 40.07216,
        "ctime": 1488471939785
    },
    {
        "name": "鸭客喜酱板鸭",
        "score": 4.6,
        "avgprice": 20,
        "addr": "昌平区回龙观西大街与育知东路交叉路口西北角",
        "phone": "18612495166",
        "longitude": 116.332925,
        "latitude": 40.079607,
        "ctime": 1488471939786
    }
]